[
  {
    "id": "agt_001",
    "userId": "usr_003",
    "businessName": "Kampala Central Financial Services",
    "location": {
      "country": "Uganda",
      "state": "Central",
      "city": "Kampala",
      "address": "Kampala Road, Central Division, Kampala",
      "coordinates": {
        "lat": 0.3476,
        "lng": 32.5825
      }
    },
    "isActive": true,
    "cashBalance": 2500000,
    "digitalBalance": 850000,
    "commissionRate": 0.02,
    "createdAt": "2024-01-25T14:20:00.000Z"
  },
  {
    "id": "agt_002",
    "userId": "usr_006",
    "businessName": "Rubaga Mobile Money Hub",
    "location": {
      "country": "Uganda",
      "state": "Central",
      "city": "Kampala",
      "address": "Buganda Road, Mengo, Kampala",
      "coordinates": {
        "lat": 0.3136,
        "lng": 32.5811
      }
    },
    "isActive": true,
    "cashBalance": 1800000,
    "digitalBalance": 650000,
    "commissionRate": 0.025,
    "createdAt": "2024-02-10T11:10:00.000Z"
  },
  {
    "id": "agt_003",
    "userId": "usr_010",
    "businessName": "Lugogo Shopping Agent",
    "location": {
      "country": "Uganda",
      "state": "Central",
      "city": "Kampala",
      "address": "Jinja Road, Nakawa Division, Kampala",
      "coordinates": {
        "lat": 0.3563,
        "lng": 32.6378
      }
    },
    "isActive": true,
    "cashBalance": 3200000,
    "digitalBalance": 950000,
    "commissionRate": 0.015,
    "createdAt": "2024-03-01T12:05:00.000Z"
  },
  {
    "id": "agt_004",
    "userId": "usr_015",
    "businessName": "Quality Mall Financial Point",
    "location": {
      "country": "Uganda",
      "state": "Central",
      "city": "Kampala",
      "address": "Entebbe Road, Wakiso, Kampala",
      "coordinates": {
        "lat": 0.2906,
        "lng": 32.5739
      }
    },
    "isActive": true,
    "cashBalance": 2100000,
    "digitalBalance": 720000,
    "commissionRate": 0.02,
    "createdAt": "2024-03-25T16:45:00.000Z"
  },
  {
    "id": "agt_005",
    "userId": "usr_020",
    "businessName": "Mulago Hospital Money Services",
    "location": {
      "country": "Uganda",
      "state": "Central",
      "city": "Kampala",
      "address": "Bombo Road, Kawempe Division, Kampala",
      "coordinates": {
        "lat": 0.3319,
        "lng": 32.5729
      }
    },
    "isActive": true,
    "cashBalance": 1950000,
    "digitalBalance": 580000,
    "commissionRate": 0.025,
    "createdAt": "2024-04-20T12:55:00.000Z"
  },
  {
    "id": "agt_006",
    "userId": "usr_021",
    "businessName": "Ggaba Landing Financial Hub",
    "location": {
      "country": "Uganda",
      "state": "Central",
      "city": "Kampala",
      "address": "Masaka Road, Makindye Division, Kampala",
      "coordinates": {
        "lat": 0.3157,
        "lng": 32.5656
      }
    },
    "isActive": true,
    "cashBalance": 1650000,
    "digitalBalance": 480000,
    "commissionRate": 0.03,
    "createdAt": "2024-01-30T09:15:00.000Z"
  },
  {
    "id": "agt_007",
    "userId": "usr_022",
    "businessName": "Makerere University Agent",
    "location": {
      "country": "Uganda",
      "state": "Central",
      "city": "Kampala",
      "address": "Gayaza Road, Kasangati, Kampala",
      "coordinates": {
        "lat": 0.3341,
        "lng": 32.6189
      }
    },
    "isActive": true,
    "cashBalance": 2850000,
    "digitalBalance": 890000,
    "commissionRate": 0.015,
    "createdAt": "2024-02-15T14:30:00.000Z"
  },
  {
    "id": "agt_008",
    "userId": "usr_023",
    "businessName": "Kabalagala Money Exchange",
    "location": {
      "country": "Uganda",
      "state": "Central",
      "city": "Kampala",
      "address": "Ggaba Road, Kabalagala, Kampala",
      "coordinates": {
        "lat": 0.2742,
        "lng": 32.6014
      }
    },
    "isActive": true,
    "cashBalance": 2200000,
    "digitalBalance": 750000,
    "commissionRate": 0.02,
    "createdAt": "2024-03-05T10:45:00.000Z"
  },
  {
    "id": "agt_009",
    "userId": "usr_024",
    "businessName": "Makerere Hill Financial Services",
    "location": {
      "country": "Uganda",
      "state": "Central",
      "city": "Kampala",
      "address": "Hoima Road, Makerere, Kampala",
      "coordinates": {
        "lat": 0.3298,
        "lng": 32.5456
      }
    },
    "isActive": true,
    "cashBalance": 1750000,
    "digitalBalance": 620000,
    "commissionRate": 0.025,
    "createdAt": "2024-03-20T13:20:00.000Z"
  },
  {
    "id": "agt_010",
    "userId": "usr_025",
    "businessName": "Kamwokya Media Center Agent",
    "location": {
      "country": "Uganda",
      "state": "Central",
      "city": "Kampala",
      "address": "Kamwokya, Central Division, Kampala",
      "coordinates": {
        "lat": 0.3789,
        "lng": 32.6156
      }
    },
    "isActive": true,
    "cashBalance": 2650000,
    "digitalBalance": 840000,
    "commissionRate": 0.018,
    "createdAt": "2024-04-05T11:35:00.000Z"
  },
  {
    "id": "agt_011",
    "userId": "usr_026",
    "businessName": "Muyenga Acacia Mall Agent",
    "location": {
      "country": "Uganda",
      "state": "Central",
      "city": "Kampala",
      "address": "Muyenga, Makindye Division, Kampala",
      "coordinates": {
        "lat": 0.3023,
        "lng": 32.5698
      }
    },
    "isActive": true,
    "cashBalance": 3100000,
    "digitalBalance": 1200000,
    "commissionRate": 0.015,
    "createdAt": "2024-01-18T15:50:00.000Z"
  },
  {
    "id": "agt_012",
    "userId": "usr_027",
    "businessName": "Wandegeya Student Services",
    "location": {
      "country": "Uganda",
      "state": "Central",
      "city": "Kampala",
      "address": "Wandegeya, Central Division, Kampala",
      "coordinates": {
        "lat": 0.3645,
        "lng": 32.5923
      }
    },
    "isActive": true,
    "cashBalance": 1900000,
    "digitalBalance": 680000,
    "commissionRate": 0.022,
    "createdAt": "2024-02-28T08:25:00.000Z"
  },
  {
    "id": "agt_013",
    "userId": "usr_028",
    "businessName": "Ntinda Shopping Mall Agent",
    "location": {
      "country": "Uganda",
      "state": "Central",
      "city": "Kampala",
      "address": "Ntinda, Nakawa Division, Kampala",
      "coordinates": {
        "lat": 0.2987,
        "lng": 32.6234
      }
    },
    "isActive": true,
    "cashBalance": 2750000,
    "digitalBalance": 920000,
    "commissionRate": 0.017,
    "createdAt": "2024-03-12T16:40:00.000Z"
  },
  {
    "id": "agt_014",
    "userId": "usr_029",
    "businessName": "Old Kampala Mosque Agent",
    "location": {
      "country": "Uganda",
      "state": "Central",
      "city": "Kampala",
      "address": "Old Kampala, Central Division, Kampala",
      "coordinates": {
        "lat": 0.3512,
        "lng": 32.5634
      }
    },
    "isActive": true,
    "cashBalance": 2300000,
    "digitalBalance": 780000,
    "commissionRate": 0.02,
    "createdAt": "2024-04-08T12:15:00.000Z"
  },
  {
    "id": "agt_015",
    "userId": "usr_030",
    "businessName": "Kyanja Kira Road Services",
    "location": {
      "country": "Uganda",
      "state": "Central",
      "city": "Kampala",
      "address": "Kyanja, Nakawa Division, Kampala",
      "coordinates": {
        "lat": 0.3167,
        "lng": 32.6445
      }
    },
    "isActive": true,
    "cashBalance": 1850000,
    "digitalBalance": 590000,
    "commissionRate": 0.025,
    "createdAt": "2024-01-22T14:05:00.000Z"
  },
  {
    "id": "agt_016",
    "userId": "usr_031",
    "businessName": "Kansanga Market Financial Point",
    "location": {
      "country": "Uganda",
      "state": "Central",
      "city": "Kampala",
      "address": "Kansanga, Makindye Division, Kampala",
      "coordinates": {
        "lat": 0.2834,
        "lng": 32.5512
      }
    },
    "isActive": true,
    "cashBalance": 2050000,
    "digitalBalance": 700000,
    "commissionRate": 0.022,
    "createdAt": "2024-02-05T09:30:00.000Z"
  },
  {
    "id": "agt_017",
    "userId": "usr_032",
    "businessName": "Bwaise Market Money Services",
    "location": {
      "country": "Uganda",
      "state": "Central",
      "city": "Kampala",
      "address": "Bwaise, Kawempe Division, Kampala",
      "coordinates": {
        "lat": 0.3423,
        "lng": 32.5512
      }
    },
    "isActive": true,
    "cashBalance": 1700000,
    "digitalBalance": 520000,
    "commissionRate": 0.028,
    "createdAt": "2024-03-18T11:20:00.000Z"
  },
  {
    "id": "agt_018",
    "userId": "usr_033",
    "businessName": "Kisaasi Market Agent",
    "location": {
      "country": "Uganda",
      "state": "Central",
      "city": "Kampala",
      "address": "Kisaasi, Nakawa Division, Kampala",
      "coordinates": {
        "lat": 0.3689,
        "lng": 32.6523
      }
    },
    "isActive": true,
    "cashBalance": 2400000,
    "digitalBalance": 810000,
    "commissionRate": 0.019,
    "createdAt": "2024-04-12T15:45:00.000Z"
  },
  {
    "id": "agt_019",
    "userId": "usr_034",
    "businessName": "Nsambya Hospital Financial Hub",
    "location": {
      "country": "Uganda",
      "state": "Central",
      "city": "Kampala",
      "address": "Nsambya, Makindye Division, Kampala",
      "coordinates": {
        "lat": 0.2945,
        "lng": 32.5823
      }
    },
    "isActive": true,
    "cashBalance": 2150000,
    "digitalBalance": 730000,
    "commissionRate": 0.021,
    "createdAt": "2024-01-28T10:55:00.000Z"
  },
  {
    "id": "agt_020",
    "userId": "usr_035",
    "businessName": "Bukoto Market Money Exchange",
    "location": {
      "country": "Uganda",
      "state": "Central",
      "city": "Kampala",
      "address": "Bukoto, Central Division, Kampala",
      "coordinates": {
        "lat": 0.3834,
        "lng": 32.5834
      }
    },
    "isActive": true,
    "cashBalance": 2950000,
    "digitalBalance": 1050000,
    "commissionRate": 0.016,
    "createdAt": "2024-04-25T13:10:00.000Z"
  },
  {
    "id": "agt_021",
    "userId": "usr_036",
    "businessName": "Lagos Island Financial Hub",
    "location": {
      "country": "Nigeria",
      "state": "Lagos",
      "city": "Lagos",
      "address": "Marina Street, Lagos Island",
      "coordinates": {
        "lat": 6.4541,
        "lng": 3.3947
      }
    },
    "isActive": true,
    "cashBalance": 5500000,
    "digitalBalance": 2200000,
    "commissionRate": 0.018,
    "createdAt": "2024-02-10T09:30:00.000Z"
  },
  {
    "id": "agt_022",
    "userId": "usr_037",
    "businessName": "Nairobi CBD Money Services",
    "location": {
      "country": "Kenya",
      "state": "Nairobi",
      "city": "Nairobi",
      "address": "Kenyatta Avenue, CBD",
      "coordinates": {
        "lat": -1.2864,
        "lng": 36.8172
      }
    },
    "isActive": true,
    "cashBalance": 4200000,
    "digitalBalance": 1800000,
    "commissionRate": 0.02,
    "createdAt": "2024-01-15T11:20:00.000Z"
  },
  {
    "id": "agt_023",
    "userId": "usr_038",
    "businessName": "Accra Osu Financial Point",
    "location": {
      "country": "Ghana",
      "state": "Greater Accra",
      "city": "Accra",
      "address": "Oxford Street, Osu",
      "coordinates": {
        "lat": 5.5600,
        "lng": -0.1870
      }
    },
    "isActive": true,
    "cashBalance": 3800000,
    "digitalBalance": 1500000,
    "commissionRate": 0.022,
    "createdAt": "2024-03-05T14:45:00.000Z"
  },
  {
    "id": "agt_024",
    "userId": "usr_039",
    "businessName": "Dar es Salaam City Agent",
    "location": {
      "country": "Tanzania",
      "state": "Dar es Salaam",
      "city": "Dar es Salaam",
      "address": "Samora Avenue, City Centre",
      "coordinates": {
        "lat": -6.7924,
        "lng": 39.2083
      }
    },
    "isActive": true,
    "cashBalance": 3200000,
    "digitalBalance": 1300000,
    "commissionRate": 0.021,
    "createdAt": "2024-02-20T10:15:00.000Z"
  },
  {
    "id": "agt_025",
    "userId": "usr_040",
    "businessName": "Kigali Downtown Exchange",
    "location": {
      "country": "Rwanda",
      "state": "Kigali",
      "city": "Kigali",
      "address": "KN 3 Avenue, City Centre",
      "coordinates": {
        "lat": -1.9536,
        "lng": 30.0606
      }
    },
    "isActive": true,
    "cashBalance": 2800000,
    "digitalBalance": 1100000,
    "commissionRate": 0.019,
    "createdAt": "2024-04-01T13:30:00.000Z"
  },
  {
    "id": "agt_026",
    "userId": "usr_041",
    "businessName": "Addis Ababa Merkato Agent",
    "location": {
      "country": "Ethiopia",
      "state": "Addis Ababa",
      "city": "Addis Ababa",
      "address": "Merkato Market District",
      "coordinates": {
        "lat": 9.0320,
        "lng": 38.7469
      }
    },
    "isActive": true,
    "cashBalance": 3500000,
    "digitalBalance": 1400000,
    "commissionRate": 0.023,
    "createdAt": "2024-01-28T08:50:00.000Z"
  },
  {
    "id": "agt_027",
    "userId": "usr_042",
    "businessName": "Abuja Wuse Market Services",
    "location": {
      "country": "Nigeria",
      "state": "FCT",
      "city": "Abuja",
      "address": "Wuse Market, Abuja",
      "coordinates": {
        "lat": 9.0579,
        "lng": 7.4951
      }
    },
    "isActive": true,
    "cashBalance": 4500000,
    "digitalBalance": 1900000,
    "commissionRate": 0.017,
    "createdAt": "2024-03-15T12:40:00.000Z"
  },
  {
    "id": "agt_028",
    "userId": "usr_043",
    "businessName": "Mombasa Old Town Agent",
    "location": {
      "country": "Kenya",
      "state": "Mombasa",
      "city": "Mombasa",
      "address": "Nkrumah Road, Old Town",
      "coordinates": {
        "lat": -4.0435,
        "lng": 39.6682
      }
    },
    "isActive": true,
    "cashBalance": 3100000,
    "digitalBalance": 1250000,
    "commissionRate": 0.024,
    "createdAt": "2024-02-08T15:20:00.000Z"
  },
  {
    "id": "agt_029",
    "userId": "usr_044",
    "businessName": "Lusaka City Market Hub",
    "location": {
      "country": "Zambia",
      "state": "Lusaka",
      "city": "Lusaka",
      "address": "Cairo Road, City Centre",
      "coordinates": {
        "lat": -15.4167,
        "lng": 28.2833
      }
    },
    "isActive": true,
    "cashBalance": 2600000,
    "digitalBalance": 980000,
    "commissionRate": 0.025,
    "createdAt": "2024-04-10T09:15:00.000Z"
  },
  {
    "id": "agt_030",
    "userId": "usr_045",
    "businessName": "Harare CBD Financial Services",
    "location": {
      "country": "Zimbabwe",
      "state": "Harare",
      "city": "Harare",
      "address": "Samora Machel Avenue, CBD",
      "coordinates": {
        "lat": -17.8252,
        "lng": 31.0335
      }
    },
    "isActive": true,
    "cashBalance": 2900000,
    "digitalBalance": 1150000,
    "commissionRate": 0.022,
    "createdAt": "2024-01-20T11:45:00.000Z"
  }
]